[{"category_code":"tech","founded_year":2007,"name":"Wakoopa","number_of_employees":8.0,"total_money_raised":1000000,"geoDescription":{"type":"Point","coordinates":[4.8948623,52.3745228]},"latitude":52.3745228,"longitude":4.8948623,"city":"Amsterdam","country":"NLD"},{"category_code":"tech","founded_year":2007,"name":"boo-box","number_of_employees":50.0,"total_money_raised":300,"geoDescription":{"type":"Point","coordinates":[-46.679287,-23.558584]},"latitude":-23.558584,"longitude":-46.679287,"city":"Sao Paulo","country":"BRA"},{"category_code":"finance","founded_year":2007,"name":"Seedcamp","number_of_employees":4.0,"total_money_raised":5000000,"geoDescription":{"type":"Point","coordinates":[-0.1418973,51.5108803]},"latitude":51.5108803,"longitude":-0.1418973,"city":"London","country":"GBR"},{"category_code":"tech","founded_year":2007,"name":"Flixwagon","number_of_employees":10.0,"total_money_raised":2500000,"geoDescription":{"type":"Point","coordinates":[34.7595,32.0554]},"latitude":32.0554,"longitude":34.7595,"city":"Tel-Aviv","country":"ISR"},{"category_code":"enterprise","founded_year":2007,"name":"UnLtdWorld","number_of_employees":4.0,"total_money_raised":199,"geoDescription":{"type":"Point","coordinates":[-0.0926903,51.522413]},"latitude":51.522413,"longitude":-0.0926903,"city":"London","country":"GBR"},{"category_code":"tech","founded_year":2007,"name":"Bragster","number_of_employees":10.0,"total_money_raised":3500000,"geoDescription":{"type":"Point","coordinates":[-0.0766034,51.5220072]},"latitude":51.5220072,"longitude":-0.0766034,"city":"London","country":"GBR"},{"category_code":"news","founded_year":2008,"name":"fotopedia","number_of_employees":17.0,"total_money_raised":12700000,"geoDescription":{"type":"Point","coordinates":[2.350987,48.856667]},"latitude":48.856667,"longitude":2.350987,"city":"Paris","country":"FRA"},{"category_code":"tech","founded_year":2007,"name":"ModiFace","number_of_employees":35.0,"total_money_raised":4250000,"geoDescription":{"type":"Point","coordinates":[-79.388279,43.666953]},"latitude":43.666953,"longitude":-79.388279,"city":"Toronto","country":"CAN"},{"category_code":"tech","founded_year":2007,"name":"Panizon","number_of_employees":4.0,"total_money_raised":50,"geoDescription":{"type":"Point","coordinates":[-106.346771,56.130366]},"latitude":56.130366,"longitude":-106.346771,"city":"","country":"CAN"},{"category_code":"tech","founded_year":2007,"name":"XIHA","number_of_employees":8.0,"total_money_raised":1000000,"geoDescription":{"type":"Point","coordinates":[24.9410012,60.1681494]},"latitude":60.1681494,"longitude":24.9410012,"city":"Helsinki","country":"FIN"},{"category_code":"education","founded_year":2007,"name":"babbel","number_of_employees":205.0,"total_money_raised":10000000,"geoDescription":{"type":"Point","coordinates":[13.38861,52.4897]},"latitude":52.4897,"longitude":13.38861,"city":"Berlin","country":"DEU"},{"category_code":"tech","founded_year":2007,"name":"Zemanta","number_of_employees":30.0,"total_money_raised":7350000,"geoDescription":{"type":"Point","coordinates":[-0.0934254,51.5141566]},"latitude":51.5141566,"longitude":-0.0934254,"city":"London","country":"GBR"},{"category_code":"tech","founded_year":2007,"name":"eRepublik","number_of_employees":30.0,"total_money_raised":2750000,"geoDescription":{"type":"Point","coordinates":[-3.6952896,40.43094]},"latitude":40.43094,"longitude":-3.6952896,"city":"Madrid","country":"ESP"},{"category_code":"tech","founded_year":2007,"name":"Omgili","number_of_employees":30.0,"total_money_raised":600,"geoDescription":{"type":"Point","coordinates":[34.7913031,32.0706393]},"latitude":32.0706393,"longitude":34.7913031,"city":"Tel Aviv","country":"ISR"},{"category_code":"tech","founded_year":2007,"name":"School of Everything","number_of_employees":8.0,"total_money_raised":279,"geoDescription":{"type":"Point","coordinates":[-0.053981,51.528817]},"latitude":51.528817,"longitude":-0.053981,"city":"London","country":"GBR"},{"category_code":"tech","founded_year":2007,"name":"Strutta","number_of_employees":12.0,"total_money_raised":1600000,"geoDescription":{"type":"Point","coordinates":[-123.1078045,49.2821075]},"latitude":49.2821075,"longitude":-123.1078045,"city":"Vancouver","country":"CAN"},{"category_code":"tech","founded_year":2007,"name":"Whois","number_of_employees":6.0,"total_money_raised":600,"geoDescription":{"type":"Point","coordinates":[103.875336,1.327062]},"latitude":1.327062,"longitude":103.875336,"city":"Singapore","country":"SGP"},{"category_code":"tech","founded_year":2007,"name":"Soocial","number_of_employees":4.0,"total_money_raised":267,"geoDescription":{"type":"Point","coordinates":[4.92319,52.3768747]},"latitude":52.3768747,"longitude":4.92319,"city":"Amsterdam","country":"NLD"},{"category_code":"tech","founded_year":2008,"name":"Jinni","number_of_employees":35.0,"total_money_raised":8100000,"geoDescription":{"type":"Point","coordinates":[34.7595,32.0554]},"latitude":32.0554,"longitude":34.7595,"city":"Tel Aviv","country":"ISR"},{"category_code":"tech","founded_year":2007,"name":"Memopal","number_of_employees":12.0,"total_money_raised":1000000,"geoDescription":{"type":"Point","coordinates":[12.461425,41.823172]},"latitude":41.823172,"longitude":12.461425,"city":"Rome","country":"ITA"},{"category_code":"sports","founded_year":2008,"name":"Smarkets","number_of_employees":15.0,"total_money_raised":2710000,"geoDescription":{"type":"Point","coordinates":[-0.130772,51.550757]},"latitude":51.550757,"longitude":-0.130772,"city":"London","country":"GBR"},{"category_code":"social","founded_year":2007,"name":"Sonico","number_of_employees":84.0,"total_money_raised":6000000,"geoDescription":{"type":"Point","coordinates":[-58.417309,-34.611781]},"latitude":-34.611781,"longitude":-58.417309,"city":"Buenos Aires","country":"ARG"},{"category_code":"tech","founded_year":2007,"name":"GigPark","number_of_employees":4.0,"total_money_raised":200,"geoDescription":{"type":"Point","coordinates":[-79.446717,43.666678]},"latitude":43.666678,"longitude":-79.446717,"city":"Toronto","country":"CAN"},{"category_code":"enterprise","founded_year":2008,"name":"ScribbleLive","number_of_employees":45.0,"total_money_raised":12000000,"geoDescription":{"type":"Point","coordinates":[-79.406775,43.64308]},"latitude":43.64308,"longitude":-79.406775,"city":"Toronto","country":"CAN"},{"category_code":"tech","founded_year":2008,"name":"Socruise","number_of_employees":5.0,"total_money_raised":222,"geoDescription":{"type":"Point","coordinates":[0.257568,51.125693]},"latitude":51.125693,"longitude":0.257568,"city":"Kent","country":"GBR"},{"category_code":"tech","founded_year":2007,"name":"Oxynade","number_of_employees":10.0,"total_money_raised":1100000,"geoDescription":{"type":"Point","coordinates":[3.71105,51.050314]},"latitude":51.050314,"longitude":3.71105,"city":"Ghent","country":"BEL"},{"category_code":"tech","founded_year":2008,"name":"Orbster","number_of_employees":8.0,"total_money_raised":445,"geoDescription":{"type":"Point","coordinates":[8.4102781,49.0092558]},"latitude":49.0092558,"longitude":8.4102781,"city":"Bangalore","country":"IND"},{"category_code":"tech","founded_year":2007,"name":"SquareClock","number_of_employees":10.0,"total_money_raised":1250000,"geoDescription":{"type":"Point","coordinates":[2.2860418,48.9064804]},"latitude":48.9064804,"longitude":2.2860418,"city":"Asnieres sur seine","country":"FRA"},{"category_code":"tech","founded_year":2007,"name":"hiogi","number_of_employees":5.0,"total_money_raised":89,"geoDescription":{"type":"Point","coordinates":[13.397398,52.529762]},"latitude":52.529762,"longitude":13.397398,"city":"Berlin","country":"DEU"},{"category_code":"tech","founded_year":2007,"name":"ScreenScape Networks","number_of_employees":29.0,"total_money_raised":4000000,"geoDescription":{"type":"Point","coordinates":[-63.127845,46.234315]},"latitude":46.234315,"longitude":-63.127845,"city":"Charlottetown","country":"CAN"},{"category_code":"tech","founded_year":2007,"name":"Dreamsoft Technologies","number_of_employees":6.0,"total_money_raised":100,"geoDescription":{"type":"Point","coordinates":[-2.15871,53.616352]},"latitude":53.616352,"longitude":-2.15871,"city":"","country":"GBR"},{"category_code":"tech","founded_year":2007,"name":"Bambuser","number_of_employees":12.0,"total_money_raised":2500000,"geoDescription":{"type":"Point","coordinates":[18.064488,59.332788]},"latitude":59.332788,"longitude":18.064488,"city":"Stockholm","country":"SWE"},{"category_code":"tech","founded_year":2007,"name":"GeoMe","number_of_employees":6.0,"total_money_raised":267,"geoDescription":{"type":"Point","coordinates":[2.168518,41.387411]},"latitude":41.387411,"longitude":2.168518,"city":"Barcelona","country":"ESP"},{"category_code":"tech","founded_year":2007,"name":"Lat49","number_of_employees":24.0,"total_money_raised":3800000,"geoDescription":{"type":"Point","coordinates":[-123.120893,49.275332]},"latitude":49.275332,"longitude":-123.120893,"city":"Vancouver, BC","country":"CAN"},{"category_code":"tech","founded_year":2007,"name":"Aloqa","number_of_employees":14.0,"total_money_raised":1500000,"geoDescription":{"type":"Point","coordinates":[11.5677288,48.1281209]},"latitude":48.1281209,"longitude":11.5677288,"city":"Munich","country":"DEU"},{"category_code":"education","founded_year":2007,"name":"Myngle","number_of_employees":17.0,"total_money_raised":2100000,"geoDescription":{"type":"Point","coordinates":[4.912106,52.354525]},"latitude":52.354525,"longitude":4.912106,"city":"Amsterdam","country":"NLD"},{"category_code":"tech","founded_year":2008,"name":"plista","number_of_employees":100.0,"total_money_raised":3800000,"geoDescription":{"type":"Point","coordinates":[13.4124563,52.5283614]},"latitude":52.5283614,"longitude":13.4124563,"city":"Berlin","country":"DEU"},{"category_code":"tech","founded_year":2008,"name":"TweetDeck","number_of_employees":5.0,"total_money_raised":3800000,"geoDescription":{"type":"Point","coordinates":[-0.1262362,51.5001524]},"latitude":51.5001524,"longitude":-0.1262362,"city":"London","country":"GBR"},{"category_code":"public_relations","founded_year":2007,"name":"HomeSpace","number_of_employees":7.0,"total_money_raised":40,"geoDescription":{"type":"Point","coordinates":[103.779503,1.292513]},"latitude":1.292513,"longitude":103.779503,"city":"Singapore","country":"SGP"},{"category_code":"tech","founded_year":2008,"name":"Wahanda","number_of_employees":50.0,"total_money_raised":7000000,"geoDescription":{"type":"Point","coordinates":[1.996567,41.792265]},"latitude":41.792265,"longitude":1.996567,"city":"London","country":"GBR"},{"category_code":"tech","founded_year":2007,"name":"AdScale","number_of_employees":40.0,"total_money_raised":6150000,"geoDescription":{"type":"Point","coordinates":[11.5893956,48.1654212]},"latitude":48.1654212,"longitude":11.5893956,"city":"Munich","country":"DEU"},{"category_code":"tech","founded_year":2007,"name":"Videoplaza","number_of_employees":70.0,"total_money_raised":15900000,"geoDescription":{"type":"Point","coordinates":[-0.1020894,51.5212481]},"latitude":51.5212481,"longitude":-0.1020894,"city":"London","country":"GBR"},{"category_code":"tech","founded_year":2007,"name":"Snagsta","number_of_employees":4.0,"total_money_raised":83,"geoDescription":{"type":"Point","coordinates":[-0.1400366,51.4761694]},"latitude":51.4761694,"longitude":-0.1400366,"city":"London","country":"GBR"},{"category_code":"tech","founded_year":2008,"name":"IBTgames","number_of_employees":11.0,"total_money_raised":25,"geoDescription":{"type":"Point","coordinates":[90.401432,23.797333]},"latitude":23.797333,"longitude":90.401432,"city":"Dhaka","country":"BGD"},{"category_code":"tech","founded_year":2009,"name":"Prezi","number_of_employees":110.0,"total_money_raised":14300000,"geoDescription":{"type":"Point","coordinates":[19.059078,47.490346]},"latitude":47.490346,"longitude":19.059078,"city":"Budapest","country":"HUN"},{"category_code":"tech","founded_year":2007,"name":"LOG607","number_of_employees":6.0,"total_money_raised":600,"geoDescription":{"type":"Point","coordinates":[12.436354,45.564209]},"latitude":45.564209,"longitude":12.436354,"city":"Roncade TV","country":"ITA"},{"category_code":"enterprise","founded_year":2008,"name":"tagga","number_of_employees":14.0,"total_money_raised":448,"geoDescription":{"type":"Point","coordinates":[-123.095249,49.284889]},"latitude":49.284889,"longitude":-123.095249,"city":"Vancouver","country":"CAN"},{"category_code":"tech","founded_year":2009,"name":"CompareAway","number_of_employees":5.0,"total_money_raised":399,"geoDescription":{"type":"Point","coordinates":[-1.574948,54.703145]},"latitude":54.703145,"longitude":-1.574948,"city":"Durham","country":"GBR"},{"category_code":"travel","founded_year":2009,"name":"GetYourGuide","number_of_employees":75.0,"total_money_raised":16000000,"geoDescription":{"type":"Point","coordinates":[8.5082891,47.3912899]},"latitude":47.3912899,"longitude":8.5082891,"city":"Zurich","country":"CHE"},{"category_code":"travel","founded_year":2011,"name":"travelmob","number_of_employees":4.0,"total_money_raised":1000000,"geoDescription":{"type":"Point","coordinates":[-157.78907,21.303049]},"latitude":21.303049,"longitude":-157.78907,"city":"Singapore","country":"SGP"},{"category_code":"tech","founded_year":2009,"name":"Burt","number_of_employees":30.0,"total_money_raised":3500000,"geoDescription":{"type":"Point","coordinates":[18.036587,59.337864]},"latitude":59.337864,"longitude":18.036587,"city":"Gothenburg","country":"SWE"},{"category_code":"tech","founded_year":2008,"name":"Tweegee","number_of_employees":22.0,"total_money_raised":3000000,"geoDescription":{"type":"Point","coordinates":[34.8003705,32.037363]},"latitude":32.037363,"longitude":34.8003705,"city":"Ramat Gan","country":"ISR"},{"category_code":"enterprise","founded_year":2007,"name":"Cignis","number_of_employees":3.0,"total_money_raised":20,"geoDescription":{"type":"Point","coordinates":[10.47651,59.852826]},"latitude":59.852826,"longitude":10.47651,"city":"Hvalstad","country":"NOR"},{"category_code":"enterprise","founded_year":2007,"name":"3scale","number_of_employees":15.0,"total_money_raised":5000000,"geoDescription":{"type":"Point","coordinates":[2.192023,41.406335]},"latitude":41.406335,"longitude":2.192023,"city":"Barcelona","country":"ESP"},{"category_code":"travel","founded_year":2011,"name":"travelmob","number_of_employees":4.0,"total_money_raised":1000000,"geoDescription":{"type":"Point","coordinates":[-157.78907,21.303049]},"latitude":21.303049,"longitude":-157.78907,"city":"Singapore","country":"SGP"},{"category_code":"tech","founded_year":2009,"name":"Burt","number_of_employees":30.0,"total_money_raised":3500000,"geoDescription":{"type":"Point","coordinates":[18.036587,59.337864]},"latitude":59.337864,"longitude":18.036587,"city":"Gothenburg","country":"SWE"},{"category_code":"tech","founded_year":2008,"name":"Tweegee","number_of_employees":22.0,"total_money_raised":3000000,"geoDescription":{"type":"Point","coordinates":[34.8003705,32.037363]},"latitude":32.037363,"longitude":34.8003705,"city":"Ramat Gan","country":"ISR"},{"category_code":"enterprise","founded_year":2007,"name":"Cignis","number_of_employees":3.0,"total_money_raised":20,"geoDescription":{"type":"Point","coordinates":[10.47651,59.852826]},"latitude":59.852826,"longitude":10.47651,"city":"Hvalstad","country":"NOR"},{"category_code":"enterprise","founded_year":2007,"name":"3scale","number_of_employees":15.0,"total_money_raised":5000000,"geoDescription":{"type":"Point","coordinates":[2.192023,41.406335]},"latitude":41.406335,"longitude":2.192023,"city":"Barcelona","country":"ESP"},{"category_code":"music","founded_year":2007,"name":"Radionomy","number_of_employees":12.0,"total_money_raised":6000000,"geoDescription":{"type":"Point","coordinates":[4.33511,50.831147]},"latitude":50.831147,"longitude":4.33511,"city":"Brussels","country":"BEL"},{"category_code":"tech","founded_year":2008,"name":"iKlax Media","number_of_employees":7.0,"total_money_raised":445,"geoDescription":{"type":"Point","coordinates":[-1.5555799,43.4477272]},"latitude":43.4477272,"longitude":-1.5555799,"city":"BIDART","country":"FRA"},{"category_code":"social","founded_year":2008,"name":"ResearchGate","number_of_employees":74.0,"total_money_raised":35000000,"geoDescription":{"type":"Point","coordinates":[13.3842605,52.5308516]},"latitude":52.5308516,"longitude":13.3842605,"city":"Berlin","country":"DEU"},{"category_code":"tech","founded_year":2008,"name":"Wishabi","number_of_employees":50.0,"total_money_raised":16000000,"geoDescription":{"type":"Point","coordinates":[-79.567221,43.644678]},"latitude":43.644678,"longitude":-79.567221,"city":"Toronto","country":"CAN"},{"category_code":"social","founded_year":2007,"name":"SocialGO","number_of_employees":12.0,"total_money_raised":3000000,"geoDescription":{"type":"Point","coordinates":[-0.0925694,51.5027669]},"latitude":51.5027669,"longitude":-0.0925694,"city":"London","country":"GBR"},{"category_code":"real_estate","founded_year":2007,"name":"Zoopla","number_of_employees":50.0,"total_money_raised":10200000,"geoDescription":{"type":"Point","coordinates":[-0.1010801,51.5037471]},"latitude":51.5037471,"longitude":-0.1010801,"city":"London","country":"GBR"},{"category_code":"tech","founded_year":2007,"name":"Trustpilot","number_of_employees":100.0,"total_money_raised":18400000,"geoDescription":{"type":"Point","coordinates":[12.5605372,55.6739617]},"latitude":55.6739617,"longitude":12.5605372,"city":"Copenhagen V","country":"DNK"},{"category_code":"tech","founded_year":2008,"name":"Movirtu","number_of_employees":50.0,"total_money_raised":5500000,"geoDescription":{"type":"Point","coordinates":[-0.1815999,51.5499708]},"latitude":51.5499708,"longitude":-0.1815999,"city":"London","country":"GBR"},{"category_code":"public_relations","founded_year":2007,"name":"SmartCrowds","number_of_employees":3.0,"total_money_raised":110,"geoDescription":{"type":"Point","coordinates":[78.2221144,12.5153051]},"latitude":12.5153051,"longitude":78.2221144,"city":"Bangalore","country":"IND"},{"category_code":"tech","founded_year":2007,"name":"VODECLIC","number_of_employees":20.0,"total_money_raised":570,"geoDescription":{"type":"Point","coordinates":[2.319287,48.891986]},"latitude":48.891986,"longitude":2.319287,"city":"Levallois-Perret","country":"FRA"},{"category_code":"enterprise","founded_year":2007,"name":"DreamFace Interactive","number_of_employees":10.0,"total_money_raised":150,"geoDescription":{"type":"Point","coordinates":[2.1907388,48.7004097]},"latitude":48.7004097,"longitude":2.1907388,"city":"Orsay","country":"FRA"},{"category_code":"social","founded_year":2009,"name":"HyperWeek","number_of_employees":5.0,"total_money_raised":1310000,"geoDescription":{"type":"Point","coordinates":[6.1503245,46.2121463]},"latitude":46.2121463,"longitude":6.1503245,"city":"Geneva","country":"CHE"},{"category_code":"tech","founded_year":2007,"name":"ALENTY","number_of_employees":17.0,"total_money_raised":356,"geoDescription":{"type":"Point","coordinates":[2.369933,48.8696389]},"latitude":48.8696389,"longitude":2.369933,"city":"Paris","country":"FRA"},{"category_code":"tech","founded_year":2007,"name":"ShedWorx","number_of_employees":5.0,"total_money_raised":100,"geoDescription":{"type":"Point","coordinates":[115.813457,-31.97302]},"latitude":-31.97302,"longitude":115.813457,"city":"Nedlands, WA","country":"AUS"},{"category_code":"tech","founded_year":2007,"name":"VIDDIX","number_of_employees":5.0,"total_money_raised":89,"geoDescription":{"type":"Point","coordinates":[5.1682449,52.0848526]},"latitude":52.0848526,"longitude":5.1682449,"city":"Utrecht","country":"NLD"},{"category_code":"enterprise","founded_year":2008,"name":"MessageBunker","number_of_employees":7.0,"total_money_raised":79,"geoDescription":{"type":"Point","coordinates":[-0.660258,51.793944]},"latitude":51.793944,"longitude":-0.660258,"city":"Hertfordshire","country":"GBR"},{"category_code":"tech","founded_year":2007,"name":"Adjug","number_of_employees":47.0,"total_money_raised":6500000,"geoDescription":{"type":"Point","coordinates":[-0.1506897,51.5441671]},"latitude":51.5441671,"longitude":-0.1506897,"city":"London","country":"GBR"},{"category_code":"tech","founded_year":2007,"name":"PrestaShop","number_of_employees":80.0,"total_money_raised":3900000,"geoDescription":{"type":"Point","coordinates":[2.3593849,48.8687217]},"latitude":48.8687217,"longitude":2.3593849,"city":"Levallois-Perret","country":"FRA"},{"category_code":"tech","founded_year":2010,"name":"Tengaged","number_of_employees":1.0,"total_money_raised":15,"geoDescription":{"type":"Point","coordinates":[2.1634249,41.4241228]},"latitude":41.4241228,"longitude":2.1634249,"city":"Barcelona","country":"ESP"},{"category_code":"tech","founded_year":2007,"name":"EcoVadis","number_of_employees":50.0,"total_money_raised":1400000,"geoDescription":{"type":"Point","coordinates":[2.3216223,48.8545738]},"latitude":48.8545738,"longitude":2.3216223,"city":"PARIS","country":"FRA"},{"category_code":"tech","founded_year":2007,"name":"PushCall","number_of_employees":4.0,"total_money_raised":150,"geoDescription":{"type":"Point","coordinates":[4.3550666,52.027964]},"latitude":52.027964,"longitude":4.3550666,"city":"Rijswijk","country":"NLD"},{"category_code":"social","founded_year":2008,"name":"Busuu","number_of_employees":25.0,"total_money_raised":4700000,"geoDescription":{"type":"Point","coordinates":[-3.6830316,40.4225487]},"latitude":40.4225487,"longitude":-3.6830316,"city":"Madrid","country":"ESP"},{"category_code":"tech","founded_year":2007,"name":"Green Apple Media","number_of_employees":50.0,"total_money_raised":132000000,"geoDescription":{"type":"Point","coordinates":[-6.2689465,53.3438298]},"latitude":53.3438298,"longitude":-6.2689465,"city":"Dublin","country":"IRL"},{"category_code":"tech","founded_year":2007,"name":"mydeco","number_of_employees":35.0,"total_money_raised":12500000,"geoDescription":{"type":"Point","coordinates":[-0.468617,51.518101]},"latitude":51.518101,"longitude":-0.468617,"city":"London","country":"GBR"},{"category_code":"tech","founded_year":2007,"name":"Sysomos","number_of_employees":50.0,"total_money_raised":250,"geoDescription":{"type":"Point","coordinates":[-79.3979364,43.65508]},"latitude":43.65508,"longitude":-79.3979364,"city":"Toronto","country":"CAN"},{"category_code":"tech","founded_year":2007,"name":"CreationFlow","number_of_employees":4.0,"total_money_raised":150,"geoDescription":{"type":"Point","coordinates":[-58.4339539,-34.6028583]},"latitude":-34.6028583,"longitude":-58.4339539,"city":"Ciudad de Buenos Aires","country":"ARG"},{"category_code":"enterprise","founded_year":2007,"name":"Quick TV","number_of_employees":6.0,"total_money_raised":2890000,"geoDescription":{"type":"Point","coordinates":[-1.6194034,54.971065]},"latitude":54.971065,"longitude":-1.6194034,"city":"Newcastle Upon Tyne","country":"GBR"},{"category_code":"fashion","founded_year":2008,"name":"Geelbe","number_of_employees":13.0,"total_money_raised":4700000,"geoDescription":{"type":"Point","coordinates":[-74.0758333,4.5980556]},"latitude":4.5980556,"longitude":-74.0758333,"city":"Bogot\u00e1","country":"COL"},{"category_code":"tech","founded_year":2008,"name":"Zopim","number_of_employees":40.0,"total_money_raised":392,"geoDescription":{"type":"Point","coordinates":[103.7807403,1.290801]},"latitude":1.290801,"longitude":103.7807403,"city":"Singapore","country":"SGP"},{"category_code":"tech","founded_year":2009,"name":"Shutl","number_of_employees":10.0,"total_money_raised":7660000,"geoDescription":{"type":"Point","coordinates":[-0.1020265,51.5196135]},"latitude":51.5196135,"longitude":-0.1020265,"city":"London","country":"GBR"},{"category_code":"real_estate","founded_year":2007,"name":"CommonFloor","number_of_employees":12.0,"total_money_raised":7500000,"geoDescription":{"type":"Point","coordinates":[77.6378619,12.9593805]},"latitude":12.9593805,"longitude":77.6378619,"city":"Bangalore, Karnataka","country":"IND"},{"category_code":"travel","founded_year":2007,"name":"Must See India","number_of_employees":3.0,"total_money_raised":5000000,"geoDescription":{"type":"Point","coordinates":[77.600339,12.9084701]},"latitude":12.9084701,"longitude":77.600339,"city":"Bangalore","country":"IND"},{"category_code":"tech","founded_year":2007,"name":"Fortumo","number_of_employees":45.0,"total_money_raised":10000000,"geoDescription":{"type":"Point","coordinates":[26.7212208,58.3754107]},"latitude":58.3754107,"longitude":26.7212208,"city":"Tartu","country":"EST"},{"category_code":"tech","founded_year":2007,"name":"Mashup Arts","number_of_employees":6.0,"total_money_raised":1580000,"geoDescription":{"type":"Point","coordinates":[-79.3777473,43.648786]},"latitude":43.648786,"longitude":-79.3777473,"city":"Halifax","country":"CAN"},{"category_code":"tech","founded_year":2008,"name":"studdex","number_of_employees":10.0,"total_money_raised":160,"geoDescription":{"type":"Point","coordinates":[7.3554365,51.4523335]},"latitude":51.4523335,"longitude":7.3554365,"city":"Berlin","country":"DEU"},{"category_code":"finance","founded_year":2008,"name":"Comunitae","number_of_employees":6.0,"total_money_raised":3500000,"geoDescription":{"type":"Point","coordinates":[-3.7033403,40.4905109]},"latitude":40.4905109,"longitude":-3.7033403,"city":"Madrid","country":"ESP"},{"category_code":"tech","founded_year":2007,"name":"ScoreGrid","number_of_employees":10.0,"total_money_raised":700,"geoDescription":{"type":"Point","coordinates":[28.0354352,-26.1470966]},"latitude":-26.1470966,"longitude":28.0354352,"city":"Johannesburg","country":"ZAF"},{"category_code":"tech","founded_year":2008,"name":"Dodreams","number_of_employees":6.0,"total_money_raised":668,"geoDescription":{"type":"Point","coordinates":[24.9438568,60.1659819]},"latitude":60.1659819,"longitude":24.9438568,"city":"","country":"FIN"},{"category_code":"public_relations","founded_year":2007,"name":"Anygma","number_of_employees":20.0,"total_money_raised":1600000,"geoDescription":{"type":"Point","coordinates":[4.3904302,51.2057495]},"latitude":51.2057495,"longitude":4.3904302,"city":"Antwerpen","country":"BEL"},{"category_code":"social","founded_year":2008,"name":"Mendeley","number_of_employees":27.0,"total_money_raised":2130000,"geoDescription":{"type":"Point","coordinates":[-0.1046546,51.5224267]},"latitude":51.5224267,"longitude":-0.1046546,"city":"London","country":"GBR"},{"category_code":"tech","founded_year":2008,"name":"SocialCom","number_of_employees":5.0,"total_money_raised":181,"geoDescription":{"type":"Point","coordinates":[13.3740493,52.5375697]},"latitude":52.5375697,"longitude":13.3740493,"city":"Munich","country":"DEU"},{"category_code":"tech","founded_year":2009,"name":"Cognitive Match","number_of_employees":40.0,"total_money_raised":10200000,"geoDescription":{"type":"Point","coordinates":[-0.0936688,51.5119418]},"latitude":51.5119418,"longitude":-0.0936688,"city":"London","country":"GBR"},{"category_code":"enterprise","founded_year":2008,"name":"TheOfficialBoard","number_of_employees":12.0,"total_money_raised":150,"geoDescription":{"type":"Point","coordinates":[2.215097,48.84176]},"latitude":48.84176,"longitude":2.215097,"city":"Saint-Cloud","country":"FRA"},{"category_code":"tech","founded_year":2008,"name":"IGLOO Software","number_of_employees":50.0,"total_money_raised":9000000,"geoDescription":{"type":"Point","coordinates":[-80.487328,43.4496954]},"latitude":43.4496954,"longitude":-80.487328,"city":"Kitchener","country":"CAN"},{"category_code":"tech","founded_year":2007,"name":"iPharro Media","number_of_employees":17.0,"total_money_raised":5180000,"geoDescription":{"type":"Point","coordinates":[8.6605881,49.8740096]},"latitude":49.8740096,"longitude":8.6605881,"city":"Darmstadt","country":"DEU"},{"category_code":"tech","founded_year":2007,"name":"GoHome","number_of_employees":19.0,"total_money_raised":757,"geoDescription":{"type":"Point","coordinates":[15.8012365,45.816128]},"latitude":45.816128,"longitude":15.8012365,"city":"Zagreb","country":"HRV"},{"category_code":"other","founded_year":2009,"name":"Internet Marketing Academy Australia","number_of_employees":8.0,"total_money_raised":100,"geoDescription":{"type":"Point","coordinates":[144.976425,-37.839941]},"latitude":-37.839941,"longitude":144.976425,"city":"Melbourne","country":"AUS"},{"category_code":"tech","founded_year":2008,"name":"userADgents","number_of_employees":15.0,"total_money_raised":500,"geoDescription":{"type":"Point","coordinates":[2.334266,48.8775197]},"latitude":48.8775197,"longitude":2.334266,"city":"Paris","country":"FRA"},{"category_code":"tech","founded_year":2008,"name":"ividence","number_of_employees":30.0,"total_money_raised":9700000,"geoDescription":{"type":"Point","coordinates":[2.3347594,48.8682244]},"latitude":48.8682244,"longitude":2.3347594,"city":"Paris","country":"FRA"},{"category_code":"tech","founded_year":2008,"name":"tolingo","number_of_employees":40.0,"total_money_raised":600,"geoDescription":{"type":"Point","coordinates":[9.9255806,53.5617341]},"latitude":53.5617341,"longitude":9.9255806,"city":"Hamburg","country":"DEU"},{"category_code":"tech","founded_year":2008,"name":"Arimaz","number_of_employees":5.0,"total_money_raised":400,"geoDescription":{"type":"Point","coordinates":[6.5877024,46.5389248]},"latitude":46.5389248,"longitude":6.5877024,"city":"Renens","country":"CHE"},{"category_code":"tech","founded_year":2009,"name":"Gate 53|10 Technologies","number_of_employees":4.0,"total_money_raised":125,"geoDescription":{"type":"Point","coordinates":[10.0184565,53.5736401]},"latitude":53.5736401,"longitude":10.0184565,"city":"Hamburg","country":"DEU"},{"category_code":"music","founded_year":2008,"name":"Musicmetric","number_of_employees":15.0,"total_money_raised":3400000,"geoDescription":{"type":"Point","coordinates":[-0.0856982,51.5253765]},"latitude":51.5253765,"longitude":-0.0856982,"city":"London","country":"GBR"},{"category_code":"tech","founded_year":2007,"name":"HealthEngine","number_of_employees":12.0,"total_money_raised":10400000,"geoDescription":{"type":"Point","coordinates":[115.89084,-31.97822]},"latitude":-31.97822,"longitude":115.89084,"city":"Perth","country":"AUS"},{"category_code":"social","founded_year":2008,"name":"HootSuite","number_of_employees":370.0,"total_money_raised":190000000,"geoDescription":{"type":"Point","coordinates":[-123.0952381,49.2851733]},"latitude":49.2851733,"longitude":-123.0952381,"city":"Vancouver","country":"CAN"},{"category_code":"tech","founded_year":2009,"name":"Brandsclub","number_of_employees":140.0,"total_money_raised":17000000,"geoDescription":{"type":"Point","coordinates":[-46.6388182,-23.5489433]},"latitude":-23.5489433,"longitude":-46.6388182,"city":"Sao Paulo","country":"BRA"},{"category_code":"tech","founded_year":2008,"name":"Imagga","number_of_employees":6.0,"total_money_raised":310,"geoDescription":{"type":"Point","coordinates":[23.316708,42.6866911]},"latitude":42.6866911,"longitude":23.316708,"city":"Sofia","country":"BGR"},{"category_code":"tech","founded_year":2008,"name":"Joobili","number_of_employees":2.0,"total_money_raised":80,"geoDescription":{"type":"Point","coordinates":[19.0284923,47.4953663]},"latitude":47.4953663,"longitude":19.0284923,"city":"Budapest","country":"HUN"},{"category_code":"tech","founded_year":2008,"name":"WEEZEVENT","number_of_employees":20.0,"total_money_raised":1100000,"geoDescription":{"type":"Point","coordinates":[2.4476331,48.8952712]},"latitude":48.8952712,"longitude":2.4476331,"city":"Paris","country":"FRA"},{"category_code":"tech","founded_year":2007,"name":"Teachable","number_of_employees":5.0,"total_money_raised":63,"geoDescription":{"type":"Point","coordinates":[-1.0912028,51.2057651]},"latitude":51.2057651,"longitude":-1.0912028,"city":"Basingstoke","country":"GBR"},{"category_code":"tech","founded_year":2008,"name":"Fresh !","number_of_employees":9.0,"total_money_raised":100,"geoDescription":{"type":"Point","coordinates":[2.2430452,48.8424529]},"latitude":48.8424529,"longitude":2.2430452,"city":"Boulogne","country":"FRA"},{"category_code":"tech","founded_year":2009,"name":"1calendar","number_of_employees":8.0,"total_money_raised":40,"geoDescription":{"type":"Point","coordinates":[12.5751278,55.6770321]},"latitude":55.6770321,"longitude":12.5751278,"city":"Copenhagen","country":"DNK"},{"category_code":"tech","founded_year":2009,"name":"DP7 Digital","number_of_employees":6.0,"total_money_raised":100,"geoDescription":{"type":"Point","coordinates":[-46.6773686,-23.5815208]},"latitude":-23.5815208,"longitude":-46.6773686,"city":"Sao Paulo","country":"BRA"},{"category_code":"news","founded_year":2007,"name":"Rue89","number_of_employees":20.0,"total_money_raised":1840000,"geoDescription":{"type":"Point","coordinates":[2.3935987,48.8711089]},"latitude":48.8711089,"longitude":2.3935987,"city":"","country":"FRA"},{"category_code":"tech","founded_year":2007,"name":"iContainers","number_of_employees":15.0,"total_money_raised":133,"geoDescription":{"type":"Point","coordinates":[2.1752709,41.3763043]},"latitude":41.3763043,"longitude":2.1752709,"city":"Barcelona","country":"ESP"},{"category_code":"travel","founded_year":2007,"name":"Hopper","number_of_employees":17.0,"total_money_raised":22000000,"geoDescription":{"type":"Point","coordinates":[-73.5550157,45.5124334]},"latitude":45.5124334,"longitude":-73.5550157,"city":"Montreal","country":"CAN"},{"category_code":"tech","founded_year":2007,"name":"VISup","number_of_employees":8.0,"total_money_raised":31,"geoDescription":{"type":"Point","coordinates":[9.2114266,45.4650967]},"latitude":45.4650967,"longitude":9.2114266,"city":"MILANO","country":"ITA"},{"category_code":"tech","founded_year":2008,"name":"YOOSE","number_of_employees":8.0,"total_money_raised":22,"geoDescription":{"type":"Point","coordinates":[13.3892132,52.5145532]},"latitude":52.5145532,"longitude":13.3892132,"city":"Berlin","country":"DEU"},{"category_code":"tech","founded_year":2008,"name":"Kwaga","number_of_employees":10.0,"total_money_raised":2150000,"geoDescription":{"type":"Point","coordinates":[2.3389864,48.8318497]},"latitude":48.8318497,"longitude":2.3389864,"city":"Paris","country":"FRA"},{"category_code":"fashion","founded_year":2010,"name":"Chicisimo","number_of_employees":4.0,"total_money_raised":800,"geoDescription":{"type":"Point","coordinates":[-2.9308322,43.264499]},"latitude":43.264499,"longitude":-2.9308322,"city":"Bilbao","country":"ESP"},{"category_code":"tech","founded_year":2009,"name":"ipadio","number_of_employees":15.0,"total_money_raised":1600000,"geoDescription":{"type":"Point","coordinates":[0.0118608,51.8205815]},"latitude":51.8205815,"longitude":0.0118608,"city":"London","country":"GBR"},{"category_code":"tech","founded_year":2007,"name":"ExtraFootie","number_of_employees":8.0,"total_money_raised":267,"geoDescription":{"type":"Point","coordinates":[4.348295,50.8263475]},"latitude":50.8263475,"longitude":4.348295,"city":"Brussels","country":"BEL"},{"category_code":"tech","founded_year":2009,"name":"Ykone","number_of_employees":10.0,"total_money_raised":1500000,"geoDescription":{"type":"Point","coordinates":[2.3509871,48.8566667]},"latitude":48.8566667,"longitude":2.3509871,"city":"Paris","country":"FRA"},{"category_code":"tech","founded_year":2007,"name":"Moviepilot","number_of_employees":43.0,"total_money_raised":7000000,"geoDescription":{"type":"Point","coordinates":[13.398504,52.4947266]},"latitude":52.4947266,"longitude":13.398504,"city":"Berlin","country":"DEU"},{"category_code":"tech","founded_year":2008,"name":"BetKlub","number_of_employees":3.0,"total_money_raised":81,"geoDescription":{"type":"Point","coordinates":[2.3639174,48.8787606]},"latitude":48.8787606,"longitude":2.3639174,"city":"Paris","country":"FRA"},{"category_code":"tech","founded_year":2008,"name":"Kimengi","number_of_employees":5.0,"total_money_raised":222,"geoDescription":{"type":"Point","coordinates":[4.8852747,52.3735592]},"latitude":52.3735592,"longitude":4.8852747,"city":"Amsterdam","country":"NLD"},{"category_code":"enterprise","founded_year":2008,"name":"oneDrum","number_of_employees":5.0,"total_money_raised":1000000,"geoDescription":{"type":"Point","coordinates":[-0.1262362,51.5001524]},"latitude":51.5001524,"longitude":-0.1262362,"city":"London","country":"GBR"},{"category_code":"tech","founded_year":2009,"name":"Layar","number_of_employees":32.0,"total_money_raised":13400000,"geoDescription":{"type":"Point","coordinates":[4.8928722,52.3657578]},"latitude":52.3657578,"longitude":4.8928722,"city":"Amsterdam","country":"NLD"},{"category_code":"tech","founded_year":2007,"name":"Tagmore Solutions","number_of_employees":15.0,"total_money_raised":222,"geoDescription":{"type":"Point","coordinates":[-3.6883074,40.4226918]},"latitude":40.4226918,"longitude":-3.6883074,"city":"Madrid","country":"ESP"},{"category_code":"tech","founded_year":2009,"name":"Lipperhey","number_of_employees":6.0,"total_money_raised":178,"geoDescription":{"type":"Point","coordinates":[4.9345824,52.3655578]},"latitude":52.3655578,"longitude":4.9345824,"city":"Amsterdam","country":"NLD"},{"category_code":"tech","founded_year":2008,"name":"Mobiles Republic","number_of_employees":25.0,"total_money_raised":9000000,"geoDescription":{"type":"Point","coordinates":[-0.5754294,44.8743952]},"latitude":44.8743952,"longitude":-0.5754294,"city":"Bordeaux Cedex","country":"FRA"},{"category_code":"tech","founded_year":2008,"name":"ubigrate","number_of_employees":12.0,"total_money_raised":445,"geoDescription":{"type":"Point","coordinates":[13.7759644,51.0343624]},"latitude":51.0343624,"longitude":13.7759644,"city":"Dresden","country":"DEU"},{"category_code":"tech","founded_year":2008,"name":"Struq","number_of_employees":50.0,"total_money_raised":8500000,"geoDescription":{"type":"Point","coordinates":[-0.1366861,51.5152023]},"latitude":51.5152023,"longitude":-0.1366861,"city":"London","country":"GBR"},{"category_code":"enterprise","founded_year":2007,"name":"Content Syndicate: Words on Demand","number_of_employees":15.0,"total_money_raised":1500000,"geoDescription":{"type":"Point","coordinates":[55.2373803,25.1910055]},"latitude":25.1910055,"longitude":55.2373803,"city":"Dubai","country":"ARE"},{"category_code":"tech","founded_year":2009,"name":"Teambox","number_of_employees":35.0,"total_money_raised":6750000,"geoDescription":{"type":"Point","coordinates":[2.1920231,41.4063346]},"latitude":41.4063346,"longitude":2.1920231,"city":"Barcelona","country":"ESP"},{"category_code":"tech","founded_year":2008,"name":"Testplant","number_of_employees":50.0,"total_money_raised":2560000,"geoDescription":{"type":"Point","coordinates":[-0.1037742,51.517356]},"latitude":51.517356,"longitude":-0.1037742,"city":"London","country":"GBR"},{"category_code":"social","founded_year":2008,"name":"FundRazr","number_of_employees":6.0,"total_money_raised":426,"geoDescription":{"type":"Point","coordinates":[-123.1092622,49.2843936]},"latitude":49.2843936,"longitude":-123.1092622,"city":"Vancouver","country":"CAN"},{"category_code":"tech","founded_year":2009,"name":"Tiny Speck","number_of_employees":45.0,"total_money_raised":17200000,"geoDescription":{"type":"Point","coordinates":[-123.109217,49.2824551]},"latitude":49.2824551,"longitude":-123.109217,"city":"Vancouver","country":"CAN"},{"category_code":"tech","founded_year":2009,"name":"Getyoo","number_of_employees":10.0,"total_money_raised":1130000,"geoDescription":{"type":"Point","coordinates":[4.3464721,50.83997]},"latitude":50.83997,"longitude":4.3464721,"city":"Brussels","country":"BEL"}]